name,lat,lon,country,elevation
Central Dhaka Stadium,23.76,90.388,Bangladesh,18.0
Hazrat Shahjalal Airport (Dhaka),23.8433,90.4036,Bangladesh,10.0
Venice Mestre Station,45.4816,12.2345,Italy,0.0
Jakarta Emergency Center,-6.2027,106.8451,Indonesia,12.0
Bangkok Suvarnabhumi Airport,13.69,100.7501,Thailand,3.0
Municipal Stadium Mumbai,19.076,72.8777,India,6.0
Beijing Olympic Park,39.9929,116.3967,China,51.0
Central Kolkata Stadium,22.5726,88.3639,India,16.0
